[{
  "schools": [
    {
      "School Name": "AI Miami International University of Art and Design",
      "Student Population": 1384,
      "Latitude": 25.790745,
      "Longitude": -80.1878552,
      "State": "Florida"
    },
    {
      "School Name": "Abraham Baldwin Agricultural College",
      "Student Population": 4291,
      "Latitude": 31.4819694,
      "Longitude": -83.5282588,
      "State": "Georgia"
    },
    {
      "School Name": "Academy College",
      "Student Population": 99,
      "Latitude": 44.8557681,
      "Longitude": -93.299784,
      "State": "Minnesota"
    },
    {
      "School Name": "Academy of Art University",
      "Student Population": 10616,
      "Latitude": 37.7879584,
      "Longitude": -122.4004678,
      "State": "California"
    },
    {
      "School Name": "Acupuncture and Massage College",
      "Student Population": 169,
      "Latitude": 25.6863527,
      "Longitude": -80.3641903,
      "State": "Florida"
    },
    {
      "School Name": "Adams State University",
      "Student Population": 3110,
      "Latitude": 37.4710901,
      "Longitude": -105.8801626,
      "State": "Colorado"
    },
    {
      "School Name": "Adelphi University",
      "Student Population": 8146,
      "Latitude": 40.7227969,
      "Longitude": -73.6546849,
      "State": "New York"
    },
    {
      "School Name": "Adrian College",
      "Student Population": 1856,
      "Latitude": 41.8965125,
      "Longitude": -84.0629919,
      "State": "Michigan"
    },
    {
      "School Name": "AdventHealth University",
      "Student Population": 1705,
      "Latitude": 28.5761267,
      "Longitude": -81.3676537,
      "State": "Florida"
    },
    {
      "School Name": "Agnes Scott College",
      "Student Population": 1030,
      "Latitude": 33.7682498,
      "Longitude": -84.2944889,
      "State": "Georgia"
    },
    {
      "School Name": "Alabama A & M University",
      "Student Population": 6106,
      "Latitude": 34.7927879,
      "Longitude": -86.5720616,
      "State": "Alabama"
    },
    {
      "School Name": "Alabama State University",
      "Student Population": 4413,
      "Latitude": 32.3651836,
      "Longitude": -86.2957213,
      "State": "Alabama"
    },
    {
      "School Name": "Albany College of Pharmacy and Health Sciences",
      "Student Population": 1331,
      "Latitude": 42.6519665,
      "Longitude": -73.778582,
      "State": "New York"
    },
    {
      "School Name": "Albany State University",
      "Student Population": 6371,
      "Latitude": 31.5734365,
      "Longitude": -84.1425655,
      "State": "Georgia"
    },
    {
      "School Name": "Albertus Magnus College",
      "Student Population": 1456,
      "Latitude": 41.3315693,
      "Longitude": -72.9225714,
      "State": "Connecticut"
    },
    {
      "School Name": "Albion College",
      "Student Population": 1533,
      "Latitude": 42.2439655,
      "Longitude": -84.7441658,
      "State": "Michigan"
    },
    {
      "School Name": "Albright College",
      "Student Population": 1934,
      "Latitude": 40.3603494,
      "Longitude": -75.9105617,
      "State": "Pennsylvania"
    },
    {
      "School Name": "Alcorn State University",
      "Student Population": 3658,
      "Latitude": 31.8759422,
      "Longitude": -91.1402143,
      "State": "Mississippi"
    },
    {
      "School Name": "Alderson Broaddus University",
      "Student Population": 911,
      "Latitude": 39.2110659,
      "Longitude": -79.9925478,
      "State": "West Virginia"
    },
    {
      "School Name": "Alfred University",
      "Student Population": 2302,
      "Latitude": 42.2539128,
      "Longitude": -77.7892475,
      "State": "New York"
    },
    {
      "School Name": "Alice Lloyd College",
      "Student Population": 644,
      "Latitude": 37.3344951,
      "Longitude": -82.8770547,
      "State": "Kentucky"
    },
    {
      "School Name": "Allegheny College",
      "Student Population": 1771,
      "Latitude": 41.6482949,
      "Longitude": -80.1454261,
      "State": "Pennsylvania"
    },
    {
      "School Name": "Allegheny Wesleyan College",
      "Student Population": 72,
      "Latitude": 40.8672095,
      "Longitude": -80.860503,
      "State": "Ohio"
    },
    {
      "School Name": "Allen College",
      "Student Population": 662,
      "Latitude": 42.5305132,
      "Longitude": -92.3403457,
      "State": "Iowa"
    },
    {
      "School Name": "Allen University",
      "Student Population": 743,
      "Latitude": 34.0109162,
      "Longitude": -81.0209006,
      "State": "South Carolina"
    },
    {
      "School Name": "Alliant International University-San Diego",
      "Student Population": 3780,
      "Latitude": 32.8965805,
      "Longitude": -117.0944537,
      "State": "California"
    },
    {
      "School Name": "Alma College",
      "Student Population": 1433,
      "Latitude": 43.3789707,
      "Longitude": -84.6698629,
      "State": "Michigan"
    },
    {
      "School Name": "Alpena Community College",
      "Student Population": 1429,
      "Latitude": 45.079889,
      "Longitude": -83.4448232,
      "State": "Michigan"
    },
    {
      "School Name": "Alvernia University",
      "Student Population": 2792,
      "Latitude": 40.3108142,
      "Longitude": -75.9353044,
      "State": "Pennsylvania"
    },
    {
      "School Name": "Alverno College",
      "Student Population": 1851,
      "Latitude": 42.9849938,
      "Longitude": -87.967849,
      "State": "Wisconsin"
    },
    {
      "School Name": "AmeriTech College-Draper",
      "Student Population": 723,
      "Latitude": 40.5278832,
      "Longitude": -111.8927234,
      "State": "Utah"
    },
    {
      "School Name": "America Evangelical University",
      "Student Population": 85,
      "Latitude": 34.0412275,
      "Longitude": -118.30882,
      "State": "California"
    },
    {
      "School Name": "American Academy of Art",
      "Student Population": 242,
      "Latitude": 41.8772942,
      "Longitude": -87.624614,
      "State": "Illinois"
    },
    {
      "School Name": "American Baptist College",
      "Student Population": 123,
      "Latitude": 36.1975936,
      "Longitude": -86.7840348,
      "State": "Tennessee"
    },
    {
      "School Name": "American Conservatory Theater",
      "Student Population": 46,
      "Latitude": 37.7873075,
      "Longitude": -122.4047388,
      "State": "California"
    },
    {
      "School Name": "American Institute of Alternative Medicine",
      "Student Population": 425,
      "Latitude": 40.1023795,
      "Longitude": -82.9887523,
      "State": "Ohio"
    },
    {
      "School Name": "American InterContinental University-Atlanta",
      "Student Population": 1806,
      "Latitude": 33.9385784,
      "Longitude": -84.354697,
      "State": "Georgia"
    },
    {
      "School Name": "American InterContinental University-Houston",
      "Student Population": 349,
      "Latitude": 29.7280994,
      "Longitude": -95.5481112,
      "State": "Texas"
    },
    {
      "School Name": "American International College",
      "Student Population": 3152,
      "Latitude": 42.1131176,
      "Longitude": -72.5570836,
      "State": "Massachusetts"
    },
    {
      "School Name": "American Jewish University",
      "Student Population": 168,
      "Latitude": 34.1263884,
      "Longitude": -118.4725275,
      "State": "California"
    },
    {
      "School Name": "American Musical and Dramatic Academy",
      "Student Population": 1676,
      "Latitude": 40.7723851,
      "Longitude": -73.9878775,
      "State": "New York"
    },
    {
      "School Name": "American National University",
      "Student Population": 1072,
      "Latitude": 37.2997396,
      "Longitude": -80.0234938,
      "State": "Virginia"
    },
    {
      "School Name": "American National University-Lexington",
      "Student Population": 299,
      "Latitude": 38.0269509,
      "Longitude": -84.4211236,
      "State": "Kentucky"
    },
    {
      "School Name": "American University",
      "Student Population": 14311,
      "Latitude": 38.9399652,
      "Longitude": -77.0880213,
      "State": "District of Columbia"
    },
    {
      "School Name": "American University of Health Sciences",
      "Student Population": 293,
      "Latitude": 33.7968545,
      "Longitude": -118.1713735,
      "State": "California"
    },
    {
      "School Name": "American University of Puerto Rico",
      "Student Population": 422,
      "Latitude": 18.4064289,
      "Longitude": -66.1865167,
      "State": "Puerto Rico"
    },
    {
      "School Name": "American University of Puerto Rico",
      "Student Population": 568,
      "Latitude": 18.4064289,
      "Longitude": -66.1865167,
      "State": "Puerto Rico"
    },
    {
      "School Name": "Amherst College",
      "Student Population": 1855,
      "Latitude": 42.3740663,
      "Longitude": -72.5189274,
      "State": "Massachusetts"
    },
    {
      "School Name": "Anderson University",
      "Student Population": 1722,
      "Latitude": 40.1100894,
      "Longitude": -85.6656014,
      "State": "Indiana"
    },
    {
      "School Name": "Anderson University",
      "Student Population": 3429,
      "Latitude": 40.1100894,
      "Longitude": -85.6656014,
      "State": "South Carolina"
    },
    {
      "School Name": "Andrew College",
      "Student Population": 293,
      "Latitude": 31.772328,
      "Longitude": -84.7950894,
      "State": "Georgia"
    },
    {
      "School Name": "Andrews University",
      "Student Population": 3407,
      "Latitude": 41.9628187,
      "Longitude": -86.3579616,
      "State": "Michigan"
    },
    {
      "School Name": "Angelo State University",
      "Student Population": 10387,
      "Latitude": 31.4414289,
      "Longitude": -100.466001,
      "State": "Texas"
    },
    {
      "School Name": "Anna Maria College",
      "Student Population": 1461,
      "Latitude": 42.327075,
      "Longitude": -71.917944,
      "State": "Massachusetts"
    },
    {
      "School Name": "Antelope Valley College",
      "Student Population": 14239,
      "Latitude": 34.6761685,
      "Longitude": -118.1853732,
      "State": "California"
    },
    {
      "School Name": "Antioch College",
      "Student Population": 102,
      "Latitude": 39.800353,
      "Longitude": -83.8884218,
      "State": "Ohio"
    },
    {
      "School Name": "Apex School of Theology",
      "Student Population": 554,
      "Latitude": 35.9225909,
      "Longitude": -78.8413168,
      "State": "North Carolina"
    },
    {
      "School Name": "Appalachian Bible College",
      "Student Population": 263,
      "Latitude": 37.853737,
      "Longitude": -81.2029951,
      "State": "West Virginia"
    },
    {
      "School Name": "Appalachian State University",
      "Student Population": 19108,
      "Latitude": 36.2109506,
      "Longitude": -81.6777048,
      "State": "North Carolina"
    },
    {
      "School Name": "Aquinas College",
      "Student Population": 1758,
      "Latitude": 42.9610438,
      "Longitude": -85.6256929,
      "State": "Michigan"
    },
    {
      "School Name": "Arapahoe Community College",
      "Student Population": 11544,
      "Latitude": 39.6083162,
      "Longitude": -105.0190322,
      "State": "Colorado"
    },
    {
      "School Name": "Arcadia University",
      "Student Population": 3662,
      "Latitude": 40.092564,
      "Longitude": -75.1638865,
      "State": "Pennsylvania"
    },
    {
      "School Name": "Argosy University-Atlanta",
      "Student Population": "null",
      "Latitude": 33.9209089,
      "Longitude": -84.3560945,
      "State": "Georgia"
    },
    {
      "School Name": "Argosy University-Chicago",
      "Student Population": "null",
      "Latitude": 41.8867634,
      "Longitude": -87.6232657,
      "State": "Illinois"
    },
    {
      "School Name": "Argosy University-Los Angeles",
      "Student Population": "null",
      "Latitude": 33.9282088,
      "Longitude": -118.3733228,
      "State": "California"
    },
    {
      "School Name": "Argosy University-Northern Virginia",
      "Student Population": "null",
      "Latitude": 38.8942893,
      "Longitude": -77.0757833,
      "State": "Virginia"
    },
    {
      "School Name": "Argosy University-Orange County",
      "Student Population": "null",
      "Latitude": 33.6964176,
      "Longitude": -117.9180724,
      "State": "California"
    },
    {
      "School Name": "Argosy University-Phoenix",
      "Student Population": "null",
      "Latitude": 33.6053895,
      "Longitude": -112.1184824,
      "State": "Arizona"
    },
    {
      "School Name": "Argosy University-Tampa",
      "Student Population": "null",
      "Latitude": 27.9551972,
      "Longitude": -82.482478,
      "State": "Florida"
    },
    {
      "School Name": "Argosy University-The Art Institute of California-Hollywood",
      "Student Population": "null",
      "Latitude": 34.1667203,
      "Longitude": -118.3751849,
      "State": "California"
    },
    {
      "School Name": "Argosy University-The Art Institute of California-San Diego",
      "Student Population": "null",
      "Latitude": 32.77835,
      "Longitude": -117.1554272,
      "State": "California"
    },
    {
      "School Name": "Argosy University-Twin Cities",
      "Student Population": "null",
      "Latitude": 44.8373018,
      "Longitude": -93.1738039,
      "State": "Minnesota"
    },
    {
      "School Name": "Arizona Christian University",
      "Student Population": 776,
      "Latitude": 33.5950881,
      "Longitude": -112.0262528,
      "State": "Arizona"
    },
    {
      "School Name": "Arizona College-Las Vegas",
      "Student Population": 500,
      "Latitude": 36.1456103,
      "Longitude": -115.1712183,
      "State": "Nevada"
    },
    {
      "School Name": "Arizona College-Mesa",
      "Student Population": 771,
      "Latitude": 33.4182914,
      "Longitude": -111.8733471,
      "State": "Arizona"
    },
    {
      "School Name": "Arizona State University-Downtown Phoenix",
      "Student Population": 11584,
      "Latitude": 33.452957,
      "Longitude": -112.0734512,
      "State": "Arizona"
    },
    {
      "School Name": "Arizona State University-Polytechnic",
      "Student Population": 5095,
      "Latitude": 33.3072488,
      "Longitude": -111.685055,
      "State": "Arizona"
    },
    {
      "School Name": "Arizona State University-Skysong",
      "Student Population": 38540,
      "Latitude": 33.4640717,
      "Longitude": -111.9232041,
      "State": "Arizona"
    },
    {
      "School Name": "Arizona State University-Tempe",
      "Student Population": 51585,
      "Latitude": 33.4219437,
      "Longitude": -111.9400636,
      "State": "Arizona"
    },
    {
      "School Name": "Arizona State University-West",
      "Student Population": 4445,
      "Latitude": 33.6075154,
      "Longitude": -112.1594153,
      "State": "Arizona"
    },
    {
      "School Name": "Arkansas Baptist College",
      "Student Population": 525,
      "Latitude": 34.7354335,
      "Longitude": -92.2894837,
      "State": "Arkansas"
    },
    {
      "School Name": "Arkansas State University-Main Campus",
      "Student Population": 13709,
      "Latitude": 35.8414567,
      "Longitude": -90.6806034,
      "State": "Arkansas"
    },
    {
      "School Name": "Arkansas Tech University",
      "Student Population": 12101,
      "Latitude": 35.293186,
      "Longitude": -93.135701,
      "State": "Arkansas"
    },
    {
      "School Name": "Arlington Baptist University",
      "Student Population": 170,
      "Latitude": 32.739242,
      "Longitude": -97.1564685,
      "State": "Texas"
    },
    {
      "School Name": "Art Academy of Cincinnati",
      "Student Population": 201,
      "Latitude": 39.1086499,
      "Longitude": -84.5137805,
      "State": "Ohio"
    },
    {
      "School Name": "Art Center College of Design",
      "Student Population": 2249,
      "Latitude": 34.1687088,
      "Longitude": -118.18513,
      "State": "California"
    },
    {
      "School Name": "Asbury University",
      "Student Population": 1940,
      "Latitude": 37.8632671,
      "Longitude": -84.6618887,
      "State": "Kentucky"
    },
    {
      "School Name": "Ashland University",
      "Student Population": 6627,
      "Latitude": 40.8614368,
      "Longitude": -82.3228059,
      "State": "Ohio"
    },
    {
      "School Name": "Aspen University",
      "Student Population": 5424,
      "Latitude": 39.6863018,
      "Longitude": -104.9391135,
      "State": "Colorado"
    },
    {
      "School Name": "Associated Beth Rivkah Schools",
      "Student Population": 195,
      "Latitude": 40.6659617,
      "Longitude": -73.9498508,
      "State": "New York"
    },
    {
      "School Name": "Assumption College",
      "Student Population": 2428,
      "Latitude": 42.2922426,
      "Longitude": -71.8291624,
      "State": "Massachusetts"
    },
    {
      "School Name": "Atenas College",
      "Student Population": 826,
      "Latitude": 18.4296637,
      "Longitude": -66.4883687,
      "State": "Puerto Rico"
    },
    {
      "School Name": "Atlanta Metropolitan State College",
      "Student Population": 2187,
      "Latitude": 33.7094958,
      "Longitude": -84.405776,
      "State": "Georgia"
    },
    {
      "School Name": "Atlantic University College",
      "Student Population": 1683,
      "Latitude": 18.3577518,
      "Longitude": -66.1112475,
      "State": "Puerto Rico"
    },
    {
      "School Name": "Atlantis University",
      "Student Population": 341,
      "Latitude": 25.7890684,
      "Longitude": -80.1896246,
      "State": "Florida"
    },
    {
      "School Name": "Auburn University at Montgomery",
      "Student Population": 5211,
      "Latitude": 32.36729,
      "Longitude": -86.177745,
      "State": "Alabama"
    },
    {
      "School Name": "Augsburg University",
      "Student Population": 3419,
      "Latitude": 44.9668218,
      "Longitude": -93.2417957,
      "State": "Minnesota"
    },
    {
      "School Name": "Augusta University",
      "Student Population": 8458,
      "Latitude": 33.4706236,
      "Longitude": -81.9899149,
      "State": "Georgia"
    },
    {
      "School Name": "Augustana College",
      "Student Population": 2543,
      "Latitude": 41.5051381,
      "Longitude": -90.5472032,
      "State": "Illinois"
    },
    {
      "School Name": "Augustana University",
      "Student Population": 2133,
      "Latitude": 43.525073,
      "Longitude": -96.73698,
      "State": "South Dakota"
    },
    {
      "School Name": "Aultman College of Nursing and Health Sciences",
      "Student Population": 343,
      "Latitude": 40.7967119,
      "Longitude": -81.4037873,
      "State": "Ohio"
    },
    {
      "School Name": "Aurora University",
      "Student Population": 6005,
      "Latitude": 41.7549208,
      "Longitude": -88.3476948,
      "State": "Illinois"
    },
    {
      "School Name": "Austin College",
      "Student Population": 1299,
      "Latitude": 33.647123,
      "Longitude": -96.5983612,
      "State": "Texas"
    },
    {
      "School Name": "Austin Community College District",
      "Student Population": 40799,
      "Latitude": 30.3227671,
      "Longitude": -97.7124366,
      "State": "Texas"
    },
    {
      "School Name": "Austin Peay State University",
      "Student Population": 10954,
      "Latitude": 36.5320374,
      "Longitude": -87.3521543,
      "State": "Tennessee"
    },
    {
      "School Name": "Ave Maria University",
      "Student Population": 1122,
      "Latitude": 26.3366663,
      "Longitude": -81.4372098,
      "State": "Florida"
    },
    {
      "School Name": "Averett University",
      "Student Population": 961,
      "Latitude": 36.577241,
      "Longitude": -79.4130591,
      "State": "Virginia"
    },
    {
      "School Name": "Averett University-Non-Traditional Programs",
      "Student Population": 612,
      "Latitude": 36.577241,
      "Longitude": -79.4130591,
      "State": "Virginia"
    },
    {
      "School Name": "Avila University",
      "Student Population": 1649,
      "Latitude": 38.911948,
      "Longitude": -94.5921098,
      "State": "Missouri"
    },
    {
      "School Name": "Azusa Pacific University",
      "Student Population": 10095,
      "Latitude": 34.1294151,
      "Longitude": -117.8879158,
      "State": "California"
    },
    {
      "School Name": "Babson College",
      "Student Population": 3357,
      "Latitude": 42.2990302,
      "Longitude": -71.2623405,
      "State": "Massachusetts"
    },
    {
      "School Name": "Bacone College",
      "Student Population": 271,
      "Latitude": 35.7740418,
      "Longitude": -95.3344863,
      "State": "Oklahoma"
    },
    {
      "School Name": "Bais Binyomin Academy",
      "Student Population": 34,
      "Latitude": 41.1230978,
      "Longitude": -74.0789832,
      "State": "New York"
    },
    {
      "School Name": "Bais HaMedrash and Mesivta of Baltimore",
      "Student Population": 80,
      "Latitude": 39.3795046,
      "Longitude": -76.674343,
      "State": "Maryland"
    },
    {
      "School Name": "Bais Medrash Elyon",
      "Student Population": 69,
      "Latitude": 41.114032,
      "Longitude": -74.069525,
      "State": "New York"
    },
    {
      "School Name": "Bais Medrash Mayan Hatorah",
      "Student Population": 69,
      "Latitude": 40.1069562,
      "Longitude": -74.2039904,
      "State": "New Jersey"
    },
    {
      "School Name": "Bais Medrash Toras Chesed",
      "Student Population": 106,
      "Latitude": 40.0997727,
      "Longitude": -74.2112423,
      "State": "New Jersey"
    },
    {
      "School Name": "Baker College",
      "Student Population": 9332,
      "Latitude": 42.9754572,
      "Longitude": -83.6961214,
      "State": "Michigan"
    },
    {
      "School Name": "Baker University",
      "Student Population": 2769,
      "Latitude": 38.7763345,
      "Longitude": -95.1881414,
      "State": "Kansas"
    },
    {
      "School Name": "Bakersfield College",
      "Student Population": 24589,
      "Latitude": 35.408,
      "Longitude": -118.9716483,
      "State": "California"
    },
    {
      "School Name": "Baldwin Wallace University",
      "Student Population": 3709,
      "Latitude": 41.3684663,
      "Longitude": -81.844763,
      "State": "Ohio"
    },
    {
      "School Name": "Ball State University",
      "Student Population": 21884,
      "Latitude": 40.1999048,
      "Longitude": -85.4115988,
      "State": "Indiana"
    },
    {
      "School Name": "Baptist Bible College",
      "Student Population": 256,
      "Latitude": 37.2401984,
      "Longitude": -93.2841826,
      "State": "Missouri"
    },
    {
      "School Name": "Baptist Memorial College of Health Sciences",
      "Student Population": 1064,
      "Latitude": 35.1389074,
      "Longitude": -90.0276951,
      "State": "Tennessee"
    },
    {
      "School Name": "Baptist Missionary Association Theological Seminary",
      "Student Population": 141,
      "Latitude": 31.9789807,
      "Longitude": -95.2555894,
      "State": "Texas"
    },
    {
      "School Name": "Baptist University of the Americas",
      "Student Population": 154,
      "Latitude": 29.350005,
      "Longitude": -98.5460948,
      "State": "Texas"
    },
    {
      "School Name": "Barclay College",
      "Student Population": 243,
      "Latitude": 37.621022,
      "Longitude": -99.104914,
      "State": "Kansas"
    },
    {
      "School Name": "Bard College",
      "Student Population": 2207,
      "Latitude": 42.0263621,
      "Longitude": -73.9023633,
      "State": "New York"
    },
    {
      "School Name": "Bard College at Simon's Rock",
      "Student Population": 396,
      "Latitude": 42.207976,
      "Longitude": -73.378238,
      "State": "Massachusetts"
    },
    {
      "School Name": "Barnard College",
      "Student Population": 2562,
      "Latitude": 40.809974,
      "Longitude": -73.962904,
      "State": "New York"
    },
    {
      "School Name": "Barry University",
      "Student Population": 7186,
      "Latitude": 25.8791629,
      "Longitude": -80.1963767,
      "State": "Florida"
    },
    {
      "School Name": "Barton College",
      "Student Population": 1059,
      "Latitude": 35.8954998,
      "Longitude": -78.8478195,
      "State": "North Carolina"
    },
    {
      "School Name": "Bates College",
      "Student Population": 1832,
      "Latitude": 44.1068479,
      "Longitude": -70.2041643,
      "State": "Maine"
    },
    {
      "School Name": "Bay Atlantic University",
      "Student Population": "null",
      "Latitude": 38.8997207,
      "Longitude": -77.0344524,
      "State": "District of Columbia"
    },
    {
      "School Name": "Bay Mills Community College",
      "Student Population": 477,
      "Latitude": 46.4546756,
      "Longitude": -84.6066307,
      "State": "Michigan"
    },
    {
      "School Name": "Bay Path University",
      "Student Population": 3444,
      "Latitude": 42.0555615,
      "Longitude": -72.5838321,
      "State": "Massachusetts"
    },
    {
      "School Name": "Bay State College",
      "Student Population": 700,
      "Latitude": 42.3517433,
      "Longitude": -71.0769134,
      "State": "Massachusetts"
    },
    {
      "School Name": "Be'er Yaakov Talmudic Seminary",
      "Student Population": 569,
      "Latitude": 41.139137,
      "Longitude": -74.0286973,
      "State": "New York"
    },
    {
      "School Name": "Beacon College",
      "Student Population": 400,
      "Latitude": 28.8107399,
      "Longitude": -81.8748058,
      "State": "Florida"
    },
    {
      "School Name": "Becker College",
      "Student Population": 1839,
      "Latitude": 42.2690259,
      "Longitude": -71.811912,
      "State": "Massachusetts"
    },
    {
      "School Name": "Beckfield College-Florence",
      "Student Population": 687,
      "Latitude": 39.0171701,
      "Longitude": -84.6412908,
      "State": "Kentucky"
    },
    {
      "School Name": "Beis Medrash Heichal Dovid",
      "Student Population": 125,
      "Latitude": 40.5955179,
      "Longitude": -73.7517849,
      "State": "New York"
    },
    {
      "School Name": "Belhaven University",
      "Student Population": 4205,
      "Latitude": 32.3198074,
      "Longitude": -90.169346,
      "State": "Mississippi"
    },
    {
      "School Name": "Bellarmine University",
      "Student Population": 3369,
      "Latitude": 38.2187146,
      "Longitude": -85.704243,
      "State": "Kentucky"
    },
    {
      "School Name": "Bellevue College",
      "Student Population": 13226,
      "Latitude": 47.5848959,
      "Longitude": -122.147211,
      "State": "Washington"
    },
    {
      "School Name": "Bellevue University",
      "Student Population": 9621,
      "Latitude": 41.1509774,
      "Longitude": -95.9195956,
      "State": "Nebraska"
    },
    {
      "School Name": "Bellin College",
      "Student Population": 477,
      "Latitude": 44.4684033,
      "Longitude": -87.9216061,
      "State": "Wisconsin"
    },
    {
      "School Name": "Bellingham Technical College",
      "Student Population": 2316,
      "Latitude": 48.7658723,
      "Longitude": -122.5124321,
      "State": "Washington"
    },
    {
      "School Name": "Belmont Abbey College",
      "Student Population": 1556,
      "Latitude": 35.2621669,
      "Longitude": -81.0431492,
      "State": "North Carolina"
    },
    {
      "School Name": "Belmont University",
      "Student Population": 8260,
      "Latitude": 36.1336191,
      "Longitude": -86.7939242,
      "State": "Tennessee"
    },
    {
      "School Name": "Beloit College",
      "Student Population": 1275,
      "Latitude": 42.5030333,
      "Longitude": -89.0309048,
      "State": "Wisconsin"
    },
    {
      "School Name": "Bemidji State University",
      "Student Population": 5111,
      "Latitude": 47.4826372,
      "Longitude": -94.8746802,
      "State": "Minnesota"
    },
    {
      "School Name": "Benedict College",
      "Student Population": 2165,
      "Latitude": 34.01302,
      "Longitude": -81.0195629,
      "State": "South Carolina"
    },
    {
      "School Name": "Benedictine College",
      "Student Population": 2124,
      "Latitude": 39.5722819,
      "Longitude": -95.1149933,
      "State": "Kansas"
    },
    {
      "School Name": "Benedictine University",
      "Student Population": 4940,
      "Latitude": 41.7788628,
      "Longitude": -88.0948979,
      "State": "Illinois"
    },
    {
      "School Name": "Benjamin Franklin Institute of Technology",
      "Student Population": 630,
      "Latitude": 42.3460977,
      "Longitude": -71.070242,
      "State": "Massachusetts"
    },
    {
      "School Name": "Bennett College",
      "Student Population": 534,
      "Latitude": 36.067872,
      "Longitude": -79.779216,
      "State": "North Carolina"
    },
    {
      "School Name": "Bennington College",
      "Student Population": 811,
      "Latitude": 42.9203078,
      "Longitude": -73.2359361,
      "State": "Vermont"
    },
    {
      "School Name": "Bentley University",
      "Student Population": 5460,
      "Latitude": 42.3870692,
      "Longitude": -71.2205583,
      "State": "Massachusetts"
    },
    {
      "School Name": "Berea College",
      "Student Population": 1673,
      "Latitude": 37.5717311,
      "Longitude": -84.2897389,
      "State": "Kentucky"
    },
    {
      "School Name": "Berkeley College-New York",
      "Student Population": 3696,
      "Latitude": 40.7539196,
      "Longitude": -73.9795019,
      "State": "New York"
    },
    {
      "School Name": "Berkeley College-Woodland Park",
      "Student Population": 3468,
      "Latitude": 40.8986902,
      "Longitude": -74.1896832,
      "State": "New Jersey"
    },
    {
      "School Name": "Berklee College of Music",
      "Student Population": 6963,
      "Latitude": 42.3465835,
      "Longitude": -71.0895205,
      "State": "Massachusetts"
    },
    {
      "School Name": "Berry College",
      "Student Population": 2014,
      "Latitude": 34.289492,
      "Longitude": -85.1868137,
      "State": "Georgia"
    },
    {
      "School Name": "Bet Medrash Gadol Ateret Torah",
      "Student Population": 106,
      "Latitude": 40.6078288,
      "Longitude": -73.9697768,
      "State": "New York"
    },
    {
      "School Name": "Beth Hamedrash Shaarei Yosher Institute",
      "Student Population": 74,
      "Latitude": 40.635439,
      "Longitude": -73.981191,
      "State": "New York"
    },
    {
      "School Name": "Beth Hatalmud Rabbinical College",
      "Student Population": 6,
      "Latitude": 40.6052428,
      "Longitude": -73.9927133,
      "State": "New York"
    },
    {
      "School Name": "Beth Medrash Meor Yitzchok",
      "Student Population": 139,
      "Latitude": 41.100985,
      "Longitude": -74.060974,
      "State": "New York"
    },
    {
      "School Name": "Beth Medrash of Asbury Park",
      "Student Population": 58,
      "Latitude": 40.043614,
      "Longitude": -74.210448,
      "State": "New Jersey"
    },
    {
      "School Name": "Bethany College",
      "Student Population": 891,
      "Latitude": 38.5799308,
      "Longitude": -97.6721221,
      "State": "Kansas"
    },
    {
      "School Name": "Bethany College",
      "Student Population": 581,
      "Latitude": 38.5799308,
      "Longitude": -97.6721221,
      "State": "West Virginia"
    },
    {
      "School Name": "Bethany Global University",
      "Student Population": 346,
      "Latitude": 44.7954973,
      "Longitude": -93.3717405,
      "State": "Minnesota"
    },
    {
      "School Name": "Bethany Lutheran College",
      "Student Population": 739,
      "Latitude": 44.1667466,
      "Longitude": -93.9912901,
      "State": "Minnesota"
    },
    {
      "School Name": "Bethel College",
      "Student Population": 31,
      "Latitude": 37.0403595,
      "Longitude": -76.4093151,
      "State": "Virginia"
    },
    {
      "School Name": "Bethel College-Indiana",
      "Student Population": 1513,
      "Latitude": 41.6781593,
      "Longitude": -86.1940547,
      "State": "Indiana"
    },
    {
      "School Name": "Bethel College-North Newton",
      "Student Population": 444,
      "Latitude": 38.0736885,
      "Longitude": -97.3433008,
      "State": "Kansas"
    },
    {
      "School Name": "Bethel University",
      "Student Population": 3692,
      "Latitude": 45.0575752,
      "Longitude": -93.1624341,
      "State": "Minnesota"
    },
    {
      "School Name": "Bethel University",
      "Student Population": 5407,
      "Latitude": 45.0575752,
      "Longitude": -93.1624341,
      "State": "Tennessee"
    },
    {
      "School Name": "Bethesda University",
      "Student Population": 371,
      "Latitude": 33.8422654,
      "Longitude": -117.9411471,
      "State": "California"
    },
    {
      "School Name": "Bethlehem College & Seminary",
      "Student Population": 203,
      "Latitude": 44.9689665,
      "Longitude": -93.255296,
      "State": "Minnesota"
    },
    {
      "School Name": "Bethune-Cookman University",
      "Student Population": 3773,
      "Latitude": 29.2121248,
      "Longitude": -81.0322912,
      "State": "Florida"
    },
    {
      "School Name": "Beulah Heights University",
      "Student Population": 416,
      "Latitude": 33.7368694,
      "Longitude": -84.3577786,
      "State": "Georgia"
    },
    {
      "School Name": "Beverly Hills Design Institute",
      "Student Population": 9,
      "Latitude": 34.0646096,
      "Longitude": -118.3756465,
      "State": "California"
    },
    {
      "School Name": "Binghamton University",
      "Student Population": 17768,
      "Latitude": 42.0934421,
      "Longitude": -75.9719572,
      "State": "New York"
    },
    {
      "School Name": "Biola University",
      "Student Population": 6109,
      "Latitude": 33.9055482,
      "Longitude": -118.0181345,
      "State": "California"
    },
    {
      "School Name": "Birmingham Southern College",
      "Student Population": 1268,
      "Latitude": 33.5148629,
      "Longitude": -86.8559116,
      "State": "Alabama"
    },
    {
      "School Name": "Bismarck State College",
      "Student Population": 3778,
      "Latitude": 46.8207177,
      "Longitude": -100.8153828,
      "State": "North Dakota"
    },
    {
      "School Name": "Black Hills State University",
      "Student Population": 4035,
      "Latitude": 44.4965054,
      "Longitude": -103.8712643,
      "State": "South Dakota"
    },
    {
      "School Name": "Blackburn College",
      "Student Population": 566,
      "Latitude": 39.2886353,
      "Longitude": -89.8729899,
      "State": "Illinois"
    },
    {
      "School Name": "Bloomfield College",
      "Student Population": 1685,
      "Latitude": 40.7947084,
      "Longitude": -74.1964937,
      "State": "New Jersey"
    },
    {
      "School Name": "Bloomsburg University of Pennsylvania",
      "Student Population": 8909,
      "Latitude": 41.0079402,
      "Longitude": -76.4472892,
      "State": "Pennsylvania"
    },
    {
      "School Name": "Blue Mountain College",
      "Student Population": 640,
      "Latitude": 34.6720826,
      "Longitude": -89.0292462,
      "State": "Mississippi"
    },
    {
      "School Name": "Bluefield College",
      "Student Population": 1156,
      "Latitude": 37.2460648,
      "Longitude": -81.2425273,
      "State": "Virginia"
    },
    {
      "School Name": "Bluefield State College",
      "Student Population": 1275,
      "Latitude": 37.267207,
      "Longitude": -81.2374697,
      "State": "West Virginia"
    },
    {
      "School Name": "Bluffton University",
      "Student Population": 770,
      "Latitude": 40.8969477,
      "Longitude": -83.8993188,
      "State": "Ohio"
    },
    {
      "School Name": "Bob Jones University",
      "Student Population": 3005,
      "Latitude": 34.8750509,
      "Longitude": -82.3644856,
      "State": "South Carolina"
    },
    {
      "School Name": "Boise Bible College",
      "Student Population": 110,
      "Latitude": 43.657882,
      "Longitude": -116.29056,
      "State": "Idaho"
    },
    {
      "School Name": "Boise State University",
      "Student Population": 25504,
      "Latitude": 43.609316,
      "Longitude": -116.2108121,
      "State": "Idaho"
    },
    {
      "School Name": "Boricua College",
      "Student Population": 731,
      "Latitude": 40.8335127,
      "Longitude": -73.9459393,
      "State": "New York"
    },
    {
      "School Name": "Boston Architectural College",
      "Student Population": 663,
      "Latitude": 42.3484447,
      "Longitude": -71.0857574,
      "State": "Massachusetts"
    },
    {
      "School Name": "Boston Baptist College",
      "Student Population": 81,
      "Latitude": 42.253995,
      "Longitude": -71.11015,
      "State": "Massachusetts"
    },
    {
      "School Name": "Boston College",
      "Student Population": 14720,
      "Latitude": 42.3361186,
      "Longitude": -71.1692165,
      "State": "Massachusetts"
    },
    {
      "School Name": "Boston University",
      "Student Population": 34657,
      "Latitude": 42.349583,
      "Longitude": -71.099535,
      "State": "Massachusetts"
    },
    {
      "School Name": "Bowdoin College",
      "Student Population": 1828,
      "Latitude": 43.9068757,
      "Longitude": -69.9656665,
      "State": "Maine"
    },
    {
      "School Name": "Bowie State University",
      "Student Population": 6320,
      "Latitude": 39.0192914,
      "Longitude": -76.7594039,
      "State": "Maryland"
    },
    {
      "School Name": "Bowling Green State University-Main Campus",
      "Student Population": 17540,
      "Latitude": 41.3754425,
      "Longitude": -83.640953,
      "State": "Ohio"
    },
    {
      "School Name": "Bradley University",
      "Student Population": 5882,
      "Latitude": 40.6963829,
      "Longitude": -89.615972,
      "State": "Illinois"
    },
    {
      "School Name": "Brandeis University",
      "Student Population": 5800,
      "Latitude": 42.3641909,
      "Longitude": -71.2596723,
      "State": "Massachusetts"
    },
    {
      "School Name": "Brandman University",
      "Student Population": 8766,
      "Latitude": 33.6564199,
      "Longitude": -117.7691303,
      "State": "California"
    },
    {
      "School Name": "Brazosport College",
      "Student Population": 4311,
      "Latitude": 29.0464175,
      "Longitude": -95.4083653,
      "State": "Texas"
    },
    {
      "School Name": "Brenau University",
      "Student Population": 2842,
      "Latitude": 34.3018881,
      "Longitude": -83.8220415,
      "State": "Georgia"
    },
    {
      "School Name": "Brescia University",
      "Student Population": 1015,
      "Latitude": 37.768595,
      "Longitude": -87.1109759,
      "State": "Kentucky"
    },
    {
      "School Name": "Brevard College",
      "Student Population": 702,
      "Latitude": 35.2367409,
      "Longitude": -82.7294959,
      "State": "North Carolina"
    },
    {
      "School Name": "Brewton-Parker College",
      "Student Population": 826,
      "Latitude": 32.1858028,
      "Longitude": -82.5847651,
      "State": "Georgia"
    },
    {
      "School Name": "Briar Cliff University",
      "Student Population": 1229,
      "Latitude": 42.5270102,
      "Longitude": -96.4270388,
      "State": "Iowa"
    },
    {
      "School Name": "Bridgewater College",
      "Student Population": 1857,
      "Latitude": 38.3789235,
      "Longitude": -78.9670039,
      "State": "Virginia"
    },
    {
      "School Name": "Bridgewater State University",
      "Student Population": 10990,
      "Latitude": 41.9869071,
      "Longitude": -70.9707476,
      "State": "Massachusetts"
    },
    {
      "School Name": "Brigham Young University-Idaho",
      "Student Population": 42341,
      "Latitude": 43.814189,
      "Longitude": -111.7830821,
      "State": "Idaho"
    },
    {
      "School Name": "Brigham Young University-Provo",
      "Student Population": 34499,
      "Latitude": 40.2524308,
      "Longitude": -111.6502622,
      "State": "Utah"
    },
    {
      "School Name": "Broadview Entertainment Arts University",
      "Student Population": "null",
      "Latitude": 40.717433,
      "Longitude": -111.8845258,
      "State": "Utah"
    },
    {
      "School Name": "Broadview University-West Jordan",
      "Student Population": 69,
      "Latitude": 40.6100984,
      "Longitude": -111.9422817,
      "State": "Utah"
    },
    {
      "School Name": "Broward College",
      "Student Population": 40784,
      "Latitude": 26.119446,
      "Longitude": -80.141768,
      "State": "Florida"
    },
    {
      "School Name": "Brown University",
      "Student Population": 10257,
      "Latitude": 41.8267718,
      "Longitude": -71.4025482,
      "State": "Rhode Island"
    },
    {
      "School Name": "Bryan College of Health Sciences",
      "Student Population": 716,
      "Latitude": 40.7973273,
      "Longitude": -96.6490486,
      "State": "Nebraska"
    },
    {
      "School Name": "Bryan College-Dayton",
      "Student Population": 1363,
      "Latitude": 35.4983997,
      "Longitude": -84.9987946,
      "State": "Tennessee"
    },
    {
      "School Name": "Bryan University",
      "Student Population": 1083,
      "Latitude": 33.4377065,
      "Longitude": -111.9443776,
      "State": "Arizona"
    },
    {
      "School Name": "Bryan University",
      "Student Population": 194,
      "Latitude": 33.4377065,
      "Longitude": -111.9443776,
      "State": "Missouri"
    },
    {
      "School Name": "Bryant & Stratton College-Akron",
      "Student Population": 123,
      "Latitude": 41.1281755,
      "Longitude": -81.6551522,
      "State": "Ohio"
    },
    {
      "School Name": "Bryant & Stratton College-Albany",
      "Student Population": 419,
      "Latitude": 42.6982085,
      "Longitude": -73.8098331,
      "State": "New York"
    },
    {
      "School Name": "Bryant & Stratton College-Amherst",
      "Student Population": 317,
      "Latitude": 43.0407128,
      "Longitude": -78.7428384,
      "State": "New York"
    },
    {
      "School Name": "Bryant & Stratton College-Bayshore",
      "Student Population": 425,
      "Latitude": 42.7179374,
      "Longitude": -87.8650525,
      "State": "Wisconsin"
    },
    {
      "School Name": "Bryant & Stratton College-Buffalo",
      "Student Population": 499,
      "Latitude": 42.8864942,
      "Longitude": -78.8732513,
      "State": "New York"
    },
    {
      "School Name": "Bryant & Stratton College-Cleveland",
      "Student Population": 202,
      "Latitude": 41.5029727,
      "Longitude": -81.666087,
      "State": "Ohio"
    },
    {
      "School Name": "Bryant & Stratton College-Greece",
      "Student Population": 223,
      "Latitude": 43.2405383,
      "Longitude": -77.6955733,
      "State": "New York"
    },
    {
      "School Name": "Bryant & Stratton College-Hampton",
      "Student Population": 333,
      "Latitude": 37.0442825,
      "Longitude": -76.3916892,
      "State": "Virginia"
    },
    {
      "School Name": "Bryant & Stratton College-Milwaukee",
      "Student Population": "null",
      "Latitude": 43.0391992,
      "Longitude": -87.9154255,
      "State": "Wisconsin"
    },
    {
      "School Name": "Bryant & Stratton College-Parma",
      "Student Population": 309,
      "Latitude": 41.4044171,
      "Longitude": -81.7817698,
      "State": "Ohio"
    },
    {
      "School Name": "Bryant & Stratton College-Racine",
      "Student Population": 103,
      "Latitude": 42.7179374,
      "Longitude": -87.8650525,
      "State": "Wisconsin"
    },
    {
      "School Name": "Bryant & Stratton College-Richmond",
      "Student Population": 741,
      "Latitude": 37.4601762,
      "Longitude": -77.5423269,
      "State": "Virginia"
    },
    {
      "School Name": "Bryant & Stratton College-Solon",
      "Student Population": 182,
      "Latitude": 41.3900122,
      "Longitude": -81.4458996,
      "State": "Ohio"
    },
    {
      "School Name": "Bryant & Stratton College-Southtowns",
      "Student Population": 195,
      "Latitude": 42.7913205,
      "Longitude": -78.7712062,
      "State": "New York"
    },
    {
      "School Name": "Bryant & Stratton College-Syracuse North",
      "Student Population": 263,
      "Latitude": 43.1896516,
      "Longitude": -76.240219,
      "State": "New York"
    },
    {
      "School Name": "Bryant & Stratton College-Virginia Beach",
      "Student Population": 529,
      "Latitude": 36.8278959,
      "Longitude": -76.1381446,
      "State": "Virginia"
    },
    {
      "School Name": "Bryant & Stratton College-Wauwatosa",
      "Student Population": 797,
      "Latitude": 43.0431584,
      "Longitude": -88.0508617,
      "State": "Wisconsin"
    },
    {
      "School Name": "Bryant University",
      "Student Population": 3788,
      "Latitude": 41.924952,
      "Longitude": -71.532786,
      "State": "Rhode Island"
    },
    {
      "School Name": "Bryn Athyn College of the New Church",
      "Student Population": 305,
      "Latitude": 40.1320822,
      "Longitude": -75.0597001,
      "State": "Pennsylvania"
    },
    {
      "School Name": "Bryn Mawr College",
      "Student Population": 1690,
      "Latitude": 40.0266437,
      "Longitude": -75.3144462,
      "State": "Pennsylvania"
    },
    {
      "School Name": "Bucknell University",
      "Student Population": 3668,
      "Latitude": 40.9547722,
      "Longitude": -76.8850759,
      "State": "Pennsylvania"
    },
    {
      "School Name": "Buena Vista University",
      "Student Population": 1846,
      "Latitude": 42.6419535,
      "Longitude": -95.2073401,
      "State": "Iowa"
    },
    {
      "School Name": "Butler University",
      "Student Population": 5495,
      "Latitude": 39.8381669,
      "Longitude": -86.1705391,
      "State": "Indiana"
    },
    {
      "School Name": "CEM College-Bayamon",
      "Student Population": 217,
      "Latitude": 18.3985712,
      "Longitude": -66.1554481,
      "State": "Puerto Rico"
    },
    {
      "School Name": "CEM College-Humacao",
      "Student Population": 262,
      "Latitude": 18.1495396,
      "Longitude": -65.8253579,
      "State": "Puerto Rico"
    },
    {
      "School Name": "CEM College-Mayaguez",
      "Student Population": 233,
      "Latitude": 18.1991555,
      "Longitude": -67.1461929,
      "State": "Puerto Rico"
    },
    {
      "School Name": "CEM College-San Juan",
      "Student Population": 408,
      "Latitude": 18.3929511,
      "Longitude": -66.0399213,
      "State": "Puerto Rico"
    },
    {
      "School Name": "CUNY Bernard M Baruch College",
      "Student Population": 18029,
      "Latitude": 40.7403959,
      "Longitude": -73.9832252,
      "State": "New York"
    },
    {
      "School Name": "CUNY Brooklyn College",
      "Student Population": 18161,
      "Latitude": 40.6308935,
      "Longitude": -73.951458,
      "State": "New York"
    },
    {
      "School Name": "CUNY City College",
      "Student Population": 16043,
      "Latitude": 40.8216144,
      "Longitude": -73.9479427,
      "State": "New York"
    },
    {
      "School Name": "CUNY Hunter College",
      "Student Population": 23202,
      "Latitude": 40.7685437,
      "Longitude": -73.9651879,
      "State": "New York"
    },
    {
      "School Name": "CUNY John Jay College of Criminal Justice",
      "Student Population": 15394,
      "Latitude": 40.7711041,
      "Longitude": -73.9897134,
      "State": "New York"
    },
    {
      "School Name": "CUNY Lehman College",
      "Student Population": 14787,
      "Latitude": 40.8708651,
      "Longitude": -73.8867486,
      "State": "New York"
    },
    {
      "School Name": "CUNY Medgar Evers College",
      "Student Population": 6638,
      "Latitude": 40.6664923,
      "Longitude": -73.9579327,
      "State": "New York"
    },
    {
      "School Name": "CUNY New York City College of Technology",
      "Student Population": 17269,
      "Latitude": 40.6954929,
      "Longitude": -73.9875681,
      "State": "New York"
    },
    {
      "School Name": "CUNY Queens College",
      "Student Population": 19746,
      "Latitude": 40.7382488,
      "Longitude": -73.8194845,
      "State": "New York"
    },
    {
      "School Name": "CUNY York College",
      "Student Population": 8693,
      "Latitude": 40.7022966,
      "Longitude": -73.7960148,
      "State": "New York"
    },
    {
      "School Name": "Cabarrus College of Health Sciences",
      "Student Population": 433,
      "Latitude": 35.439955,
      "Longitude": -80.6009115,
      "State": "North Carolina"
    },
    {
      "School Name": "Cabrini University",
      "Student Population": 2285,
      "Latitude": 40.055158,
      "Longitude": -75.3673972,
      "State": "Pennsylvania"
    },
    {
      "School Name": "Cairn University-Langhorne",
      "Student Population": 1143,
      "Latitude": 40.1650923,
      "Longitude": -74.9087964,
      "State": "Pennsylvania"
    },
    {
      "School Name": "Caldwell University",
      "Student Population": 2189,
      "Latitude": 40.8356398,
      "Longitude": -74.2697785,
      "State": "New Jersey"
    },
    {
      "School Name": "California Aeronautical University",
      "Student Population": 306,
      "Latitude": 35.4341869,
      "Longitude": -119.0506421,
      "State": "California"
    },
    {
      "School Name": "California Baptist University",
      "Student Population": 10486,
      "Latitude": 33.9284053,
      "Longitude": -117.4255589,
      "State": "California"
    },
    {
      "School Name": "California Christian College",
      "Student Population": 13,
      "Latitude": 36.7500277,
      "Longitude": -119.7108224,
      "State": "California"
    },
    {
      "School Name": "California College San Diego",
      "Student Population": 300,
      "Latitude": 33.1383538,
      "Longitude": -117.1607117,
      "State": "California"
    },
    {
      "School Name": "California College San Diego",
      "Student Population": 761,
      "Latitude": 33.1383538,
      "Longitude": -117.1607117,
      "State": "California"
    },
    {
      "School Name": "California College of the Arts",
      "Student Population": 1805,
      "Latitude": 37.7673765,
      "Longitude": -122.399486,
      "State": "California"
    },
    {
      "School Name": "California Institute of Technology",
      "Student Population": 2233,
      "Latitude": 34.1356666,
      "Longitude": -118.12724,
      "State": "California"
    },
    {
      "School Name": "California Institute of the Arts",
      "Student Population": 1506,
      "Latitude": 34.3927517,
      "Longitude": -118.5673382,
      "State": "California"
    },
    {
      "School Name": "California Jazz Conservatory",
      "Student Population": 54,
      "Latitude": 37.8712728,
      "Longitude": -122.2687187,
      "State": "California"
    },
    {
      "School Name": "California Lutheran University",
      "Student Population": 4383,
      "Latitude": 34.2253821,
      "Longitude": -118.8786129,
      "State": "California"
    },
    {
      "School Name": "California Miramar University",
      "Student Population": 236,
      "Latitude": 32.7794063,
      "Longitude": -117.1184553,
      "State": "California"
    },
    {
      "School Name": "California Polytechnic State University-San Luis Obispo",
      "Student Population": 22013,
      "Latitude": 35.3011339,
      "Longitude": -120.658758,
      "State": "California"
    },
    {
      "School Name": "California State Polytechnic University-Pomona",
      "Student Population": 26598,
      "Latitude": 34.055599,
      "Longitude": -117.8192622,
      "State": "California"
    },
    {
      "School Name": "California State University Maritime Academy",
      "Student Population": 1046,
      "Latitude": 38.0692105,
      "Longitude": -122.2325063,
      "State": "California"
    },
    {
      "School Name": "California State University-Bakersfield",
      "Student Population": 10816,
      "Latitude": 35.3486641,
      "Longitude": -119.1033448,
      "State": "California"
    },
    {
      "School Name": "California State University-Channel Islands",
      "Student Population": 7488,
      "Latitude": 34.161022,
      "Longitude": -119.0437177,
      "State": "California"
    },
    {
      "School Name": "California State University-Chico",
      "Student Population": 17578,
      "Latitude": 39.7210777,
      "Longitude": -121.8348487,
      "State": "California"
    },
    {
      "School Name": "California State University-Dominguez Hills",
      "Student Population": 16732,
      "Latitude": 33.8639658,
      "Longitude": -118.2570021,
      "State": "California"
    },
    {
      "School Name": "California State University-East Bay",
      "Student Population": 15628,
      "Latitude": 37.6571303,
      "Longitude": -122.0567457,
      "State": "California"
    },
    {
      "School Name": "California State University-Fresno",
      "Student Population": 25137,
      "Latitude": 36.8108284,
      "Longitude": -119.7462226,
      "State": "California"
    },
    {
      "School Name": "California State University-Fullerton",
      "Student Population": 40280,
      "Latitude": 33.8819278,
      "Longitude": -117.8889736,
      "State": "California"
    },
    {
      "School Name": "California State University-Long Beach",
      "Student Population": 37466,
      "Latitude": 33.7826983,
      "Longitude": -118.1223045,
      "State": "California"
    },
    {
      "School Name": "California State University-Los Angeles",
      "Student Population": 28036,
      "Latitude": 34.0620391,
      "Longitude": -118.1736587,
      "State": "California"
    },
    {
      "School Name": "California State University-Monterey Bay",
      "Student Population": 7540,
      "Latitude": 36.6508506,
      "Longitude": -121.7977026,
      "State": "California"
    },
    {
      "School Name": "California State University-Northridge",
      "Student Population": 40212,
      "Latitude": 34.2399364,
      "Longitude": -118.5262521,
      "State": "California"
    },
    {
      "School Name": "California State University-Sacramento",
      "Student Population": 31902,
      "Latitude": 38.5642453,
      "Longitude": -121.4252955,
      "State": "California"
    },
    {
      "School Name": "California State University-San Bernardino",
      "Student Population": 20238,
      "Latitude": 34.1813145,
      "Longitude": -117.3215307,
      "State": "California"
    },
    {
      "School Name": "California State University-San Marcos",
      "Student Population": 15972,
      "Latitude": 33.1290871,
      "Longitude": -117.1596729,
      "State": "California"
    },
    {
      "School Name": "California State University-Stanislaus",
      "Student Population": 10577,
      "Latitude": 37.5235627,
      "Longitude": -120.8570626,
      "State": "California"
    },
    {
      "School Name": "California University of Management and Sciences",
      "Student Population": 20,
      "Latitude": 33.8420409,
      "Longitude": -117.9420624,
      "State": "California"
    },
    {
      "School Name": "California University of Pennsylvania",
      "Student Population": 7310,
      "Latitude": 40.0632191,
      "Longitude": -79.8842393,
      "State": "Pennsylvania"
    },
    {
      "School Name": "Calumet College of Saint Joseph",
      "Student Population": 773,
      "Latitude": 41.67086,
      "Longitude": -87.494459,
      "State": "Indiana"
    },
    {
      "School Name": "Calvary University",
      "Student Population": 346,
      "Latitude": 38.8391679,
      "Longitude": -94.5447145,
      "State": "Missouri"
    },
    {
      "School Name": "Calvin College",
      "Student Population": 3732,
      "Latitude": 42.9331793,
      "Longitude": -85.580505,
      "State": "Michigan"
    },
    {
      "School Name": "Cambridge College",
      "Student Population": 2234,
      "Latitude": 42.3809947,
      "Longitude": -71.0727119,
      "State": "Massachusetts"
    },
    {
      "School Name": "Cameron University",
      "Student Population": 4290,
      "Latitude": 34.6054387,
      "Longitude": -98.4361444,
      "State": "Oklahoma"
    },
    {
      "School Name": "Campbell University",
      "Student Population": 6448,
      "Latitude": 35.4091517,
      "Longitude": -78.7382773,
      "State": "North Carolina"
    },
    {
      "School Name": "Campbellsville University",
      "Student Population": 11470,
      "Latitude": 37.3429502,
      "Longitude": -85.349153,
      "State": "Kentucky"
    },
    {
      "School Name": "Canisius College",
      "Student Population": 3244,
      "Latitude": 42.9272065,
      "Longitude": -78.8528401,
      "State": "New York"
    },
    {
      "School Name": "Capital University",
      "Student Population": 3213,
      "Latitude": 39.9551049,
      "Longitude": -82.9375379,
      "State": "Ohio"
    },
    {
      "School Name": "Capitol Technology University",
      "Student Population": 743,
      "Latitude": 39.0470439,
      "Longitude": -76.852139,
      "State": "Maryland"
    },
    {
      "School Name": "Cardinal Stritch University",
      "Student Population": 2148,
      "Latitude": 43.140054,
      "Longitude": -87.9071529,
      "State": "Wisconsin"
    },
    {
      "School Name": "Caribbean University-Bayamon",
      "Student Population": 1197,
      "Latitude": 18.4017094,
      "Longitude": -66.1593451,
      "State": "Puerto Rico"
    },
    {
      "School Name": "Caribbean University-Carolina",
      "Student Population": 323,
      "Latitude": 18.3804425,
      "Longitude": -65.960426,
      "State": "Puerto Rico"
    },
    {
      "School Name": "Caribbean University-Ponce",
      "Student Population": 755,
      "Latitude": 18.0061035,
      "Longitude": -66.5929503,
      "State": "Puerto Rico"
    },
    {
      "School Name": "Caribbean University-Vega Baja",
      "Student Population": 211,
      "Latitude": 18.4447517,
      "Longitude": -66.4037142,
      "State": "Puerto Rico"
    },
    {
      "School Name": "Carleton College",
      "Student Population": 2097,
      "Latitude": 44.4613633,
      "Longitude": -93.1559742,
      "State": "Minnesota"
    },
    {
      "School Name": "Carlos Albizu University-Miami",
      "Student Population": 746,
      "Latitude": 25.7949837,
      "Longitude": -80.3550947,
      "State": "Florida"
    },
    {
      "School Name": "Carlos Albizu University-San Juan",
      "Student Population": 1759,
      "Latitude": 18.4666383,
      "Longitude": -66.1138317,
      "State": "Puerto Rico"
    },
    {
      "School Name": "Carlow University",
      "Student Population": 2076,
      "Latitude": 40.4389338,
      "Longitude": -79.9631161,
      "State": "Pennsylvania"
    },
    {
      "School Name": "Carnegie Mellon University",
      "Student Population": 14029,
      "Latitude": 40.4441647,
      "Longitude": -79.9433725,
      "State": "Pennsylvania"
    },
    {
      "School Name": "Carolina Christian College",
      "Student Population": 70,
      "Latitude": 36.1461702,
      "Longitude": -80.256222,
      "State": "North Carolina"
    },
    {
      "School Name": "Carolina College of Biblical Studies",
      "Student Population": 182,
      "Latitude": 35.0513111,
      "Longitude": -78.9395638,
      "State": "North Carolina"
    },
    {
      "School Name": "Carolinas College of Health Sciences",
      "Student Population": 467,
      "Latitude": 35.2003507,
      "Longitude": -80.8385574,
      "State": "North Carolina"
    },
    {
      "School Name": "Carroll College",
      "Student Population": 1335,
      "Latitude": 46.6013247,
      "Longitude": -112.0388419,
      "State": "Montana"
    },
    {
      "School Name": "Carroll University",
      "Student Population": 3352,
      "Latitude": 43.0044881,
      "Longitude": -88.2280201,
      "State": "Wisconsin"
    },
    {
      "School Name": "Carson-Newman University",
      "Student Population": 2560,
      "Latitude": 36.1223377,
      "Longitude": -83.4908561,
      "State": "Tennessee"
    },
    {
      "School Name": "Carthage College",
      "Student Population": 2872,
      "Latitude": 42.6221689,
      "Longitude": -87.821815,
      "State": "Wisconsin"
    },
    {
      "School Name": "Carver Bible College",
      "Student Population": "null",
      "Latitude": 33.7228254,
      "Longitude": -84.5156485,
      "State": "Georgia"
    },
    {
      "School Name": "Cascadia College",
      "Student Population": 3396,
      "Latitude": 47.7609281,
      "Longitude": -122.1913859,
      "State": "Washington"
    },
    {
      "School Name": "Case Western Reserve University",
      "Student Population": 11890,
      "Latitude": 41.50462,
      "Longitude": -81.609732,
      "State": "Ohio"
    },
    {
      "School Name": "Castleton University",
      "Student Population": 2196,
      "Latitude": 43.6081315,
      "Longitude": -73.1783828,
      "State": "Vermont"
    },
    {
      "School Name": "Catawba College",
      "Student Population": 1294,
      "Latitude": 35.6915176,
      "Longitude": -80.4838367,
      "State": "North Carolina"
    },
    {
      "School Name": "Catholic University of America",
      "Student Population": 5956,
      "Latitude": 38.9326676,
      "Longitude": -76.9979452,
      "State": "District of Columbia"
    },
    {
      "School Name": "Cazenovia College",
      "Student Population": 870,
      "Latitude": 42.9324543,
      "Longitude": -75.8550304,
      "State": "New York"
    },
    {
      "School Name": "Cedar Crest College",
      "Student Population": 1596,
      "Latitude": 40.5860439,
      "Longitude": -75.5192347,
      "State": "Pennsylvania"
    },
    {
      "School Name": "Cedarville University",
      "Student Population": 4150,
      "Latitude": 39.7468502,
      "Longitude": -83.8109844,
      "State": "Ohio"
    },
    {
      "School Name": "Centenary College of Louisiana",
      "Student Population": 585,
      "Latitude": 32.4830533,
      "Longitude": -93.7334146,
      "State": "Louisiana"
    },
    {
      "School Name": "Centenary University",
      "Student Population": 1802,
      "Latitude": 40.8474559,
      "Longitude": -74.8343839,
      "State": "New Jersey"
    },
    {
      "School Name": "Centra College of Nursing",
      "Student Population": 369,
      "Latitude": 37.404822,
      "Longitude": -79.1740764,
      "State": "Virginia"
    },
    {
      "School Name": "Central Baptist College",
      "Student Population": 732,
      "Latitude": 35.0837628,
      "Longitude": -92.4449639,
      "State": "Arkansas"
    },
    {
      "School Name": "Central Christian College of Kansas",
      "Student Population": 726,
      "Latitude": 38.3583827,
      "Longitude": -97.6676974,
      "State": "Kansas"
    },
    {
      "School Name": "Central Christian College of the Bible",
      "Student Population": 211,
      "Latitude": 39.3960168,
      "Longitude": -92.4274335,
      "State": "Missouri"
    },
    {
      "School Name": "Central College",
      "Student Population": 1117,
      "Latitude": 41.4015297,
      "Longitude": -92.9221676,
      "State": "Iowa"
    },
    {
      "School Name": "Central Connecticut State University",
      "Student Population": 11822,
      "Latitude": 41.6907573,
      "Longitude": -72.7709772,
      "State": "Connecticut"
    },
    {
      "School Name": "Central Methodist University-College of Graduate and Extended Studies",
      "Student Population": 3863,
      "Latitude": 39.1514905,
      "Longitude": -92.6839663,
      "State": "Missouri"
    },
    {
      "School Name": "Central Methodist University-College of Liberal Arts and Sciences",
      "Student Population": 1148,
      "Latitude": 39.1514905,
      "Longitude": -92.6839663,
      "State": "Missouri"
    },
    {
      "School Name": "Central Michigan University",
      "Student Population": 21622,
      "Latitude": 43.5911786,
      "Longitude": -84.7753308,
      "State": "Michigan"
    },
    {
      "School Name": "Central Penn College",
      "Student Population": 1047,
      "Latitude": 40.3049759,
      "Longitude": -76.9346183,
      "State": "Pennsylvania"
    },
    {
      "School Name": "Central State University",
      "Student Population": 2099,
      "Latitude": 39.714915,
      "Longitude": -83.8771617,
      "State": "Ohio"
    },
    {
      "School Name": "Central Washington University",
      "Student Population": 12342,
      "Latitude": 47.0029902,
      "Longitude": -120.5377517,
      "State": "Washington"
    },
    {
      "School Name": "Central Yeshiva Tomchei Tmimim Lubavitz",
      "Student Population": 536,
      "Latitude": 40.6277932,
      "Longitude": -73.9704682,
      "State": "New York"
    },
    {
      "School Name": "Centralia College",
      "Student Population": 3167,
      "Latitude": 46.7162571,
      "Longitude": -122.9606674,
      "State": "Washington"
    },
    {
      "School Name": "Centre College",
      "Student Population": 1434,
      "Latitude": 37.6450353,
      "Longitude": -84.7777339,
      "State": "Kentucky"
    },
    {
      "School Name": "Centura College-Chesapeake",
      "Student Population": 157,
      "Latitude": 36.7660867,
      "Longitude": -76.2277695,
      "State": "Virginia"
    },
    {
      "School Name": "Centura College-Virginia Beach",
      "Student Population": 102,
      "Latitude": 36.8375601,
      "Longitude": -76.064528,
      "State": "Virginia"
    },
    {
      "School Name": "Chadron State College",
      "Student Population": 2448,
      "Latitude": 42.8198689,
      "Longitude": -103.0015725,
      "State": "Nebraska"
    },
    {
      "School Name": "Chamberlain University-Arizona",
      "Student Population": 692,
      "Latitude": 33.5661741,
      "Longitude": -112.1045514,
      "State": "Arizona"
    },
    {
      "School Name": "Chamberlain University-California",
      "Student Population": 226,
      "Latitude": 38.5963197,
      "Longitude": -121.2781968,
      "State": "California"
    },
    {
      "School Name": "Chamberlain University-Florida",
      "Student Population": 946,
      "Latitude": 30.2434531,
      "Longitude": -81.5864987,
      "State": "Florida"
    },
    {
      "School Name": "Chamberlain University-Georgia",
      "Student Population": 1068,
      "Latitude": 33.9113244,
      "Longitude": -84.3497684,
      "State": "Georgia"
    },
    {
      "School Name": "Chamberlain University-Illinois",
      "Student Population": 27629,
      "Latitude": 41.9499105,
      "Longitude": -88.0386012,
      "State": "Illinois"
    },
    {
      "School Name": "Chamberlain University-Indiana",
      "Student Population": 210,
      "Latitude": 39.919027,
      "Longitude": -86.1111604,
      "State": "Indiana"
    },
    {
      "School Name": "Chamberlain University-Louisiana",
      "Student Population": 75,
      "Latitude": 29.9624924,
      "Longitude": -90.1527903,
      "State": "Louisiana"
    },
    {
      "School Name": "Chamberlain University-Michigan",
      "Student Population": 299,
      "Latitude": 42.5572233,
      "Longitude": -83.1505777,
      "State": "Michigan"
    },
    {
      "School Name": "Chamberlain University-Missouri",
      "Student Population": 535,
      "Latitude": 38.7021294,
      "Longitude": -90.435646,
      "State": "Missouri"
    },
    {
      "School Name": "Chamberlain University-Nevada",
      "Student Population": 310,
      "Latitude": 36.1850599,
      "Longitude": -115.3134834,
      "State": "Nevada"
    },
    {
      "School Name": "Chamberlain University-New Jersey",
      "Student Population": 677,
      "Latitude": 40.4659344,
      "Longitude": -74.4388714,
      "State": "New Jersey"
    },
    {
      "School Name": "Chamberlain University-North Carolina",
      "Student Population": 179,
      "Latitude": 35.1376322,
      "Longitude": -80.9318895,
      "State": "North Carolina"
    },
    {
      "School Name": "Chamberlain University-Ohio",
      "Student Population": 557,
      "Latitude": 39.9405044,
      "Longitude": -82.9403245,
      "State": "Ohio"
    },
    {
      "School Name": "Chamberlain University-Texas",
      "Student Population": 823,
      "Latitude": 29.8384041,
      "Longitude": -95.5603333,
      "State": "Texas"
    },
    {
      "School Name": "Chamberlain University-Virginia",
      "Student Population": 506,
      "Latitude": 38.8523629,
      "Longitude": -77.0505657,
      "State": "Virginia"
    },
    {
      "School Name": "Champion Christian College",
      "Student Population": 87,
      "Latitude": 34.5002048,
      "Longitude": -93.0656415,
      "State": "Arkansas"
    },
    {
      "School Name": "Champlain College",
      "Student Population": 4531,
      "Latitude": 44.4755768,
      "Longitude": -73.2057021,
      "State": "Vermont"
    },
    {
      "School Name": "Chapman University",
      "Student Population": 9608,
      "Latitude": 33.7931305,
      "Longitude": -117.8521395,
      "State": "California"
    },
    {
      "School Name": "Charles R Drew University of Medicine and Science",
      "Student Population": 596,
      "Latitude": 33.9254883,
      "Longitude": -118.2428859,
      "State": "California"
    },
    {
      "School Name": "Charleston Southern University",
      "Student Population": 3414,
      "Latitude": 32.9821829,
      "Longitude": -80.0706554,
      "State": "South Carolina"
    },
    {
      "School Name": "Charlotte Christian College and Theological Seminary",
      "Student Population": 80,
      "Latitude": 35.2426692,
      "Longitude": -80.8023502,
      "State": "North Carolina"
    },
    {
      "School Name": "Charter College",
      "Student Population": 2853,
      "Latitude": 45.6178325,
      "Longitude": -122.4947557,
      "State": "Washington"
    },
    {
      "School Name": "Chatham University",
      "Student Population": 2336,
      "Latitude": 40.4474956,
      "Longitude": -79.9238168,
      "State": "Pennsylvania"
    },
    {
      "School Name": "Chestnut Hill College",
      "Student Population": 1794,
      "Latitude": 40.0874677,
      "Longitude": -75.2281838,
      "State": "Pennsylvania"
    },
    {
      "School Name": "Cheyney University of Pennsylvania",
      "Student Population": 466,
      "Latitude": 39.9350609,
      "Longitude": -75.5271118,
      "State": "Pennsylvania"
    },
    {
      "School Name": "Chicago State University",
      "Student Population": 2964,
      "Latitude": 41.7211175,
      "Longitude": -87.6133634,
      "State": "Illinois"
    },
    {
      "School Name": "Chipola College",
      "Student Population": 2081,
      "Latitude": 30.7874134,
      "Longitude": -85.232581,
      "State": "Florida"
    },
    {
      "School Name": "Chowan University",
      "Student Population": 1399,
      "Latitude": 36.4354563,
      "Longitude": -77.0969759,
      "State": "North Carolina"
    },
    {
      "School Name": "Christian Brothers University",
      "Student Population": 2034,
      "Latitude": 35.128596,
      "Longitude": -89.9824691,
      "State": "Tennessee"
    },
    {
      "School Name": "Christopher Newport University",
      "Student Population": 4957,
      "Latitude": 37.0608093,
      "Longitude": -76.4899457,
      "State": "Virginia"
    },
    {
      "School Name": "Cincinnati Christian University",
      "Student Population": 776,
      "Latitude": 39.1123835,
      "Longitude": -84.556547,
      "State": "Ohio"
    },
    {
      "School Name": "Citadel Military College of South Carolina",
      "Student Population": 3763,
      "Latitude": 32.7975896,
      "Longitude": -79.9589578,
      "State": "South Carolina"
    },
    {
      "School Name": "City College-Fort Lauderdale",
      "Student Population": 303,
      "Latitude": 26.1874932,
      "Longitude": -80.1701558,
      "State": "Florida"
    },
    {
      "School Name": "City College-Gainesville",
      "Student Population": 190,
      "Latitude": 29.6548093,
      "Longitude": -82.4172919,
      "State": "Florida"
    },
    {
      "School Name": "City College-Miami",
      "Student Population": 173,
      "Latitude": 25.6836533,
      "Longitude": -80.3170454,
      "State": "Florida"
    },
    {
      "School Name": "City University of Seattle",
      "Student Population": 2113,
      "Latitude": 47.6177358,
      "Longitude": -122.3444333,
      "State": "Washington"
    },
    {
      "School Name": "Claflin University",
      "Student Population": 2172,
      "Latitude": 33.4990214,
      "Longitude": -80.854211,
      "State": "South Carolina"
    },
    {
      "School Name": "Claremont McKenna College",
      "Student Population": 1327,
      "Latitude": 34.1020742,
      "Longitude": -117.7064979,
      "State": "California"
    },
    {
      "School Name": "Clarion University of Pennsylvania",
      "Student Population": 4864,
      "Latitude": 41.2104564,
      "Longitude": -79.3802567,
      "State": "Pennsylvania"
    },
    {
      "School Name": "Clark Atlanta University",
      "Student Population": 3911,
      "Latitude": 33.7482561,
      "Longitude": -84.4130399,
      "State": "Georgia"
    },
    {
      "School Name": "Clark College",
      "Student Population": 9878,
      "Latitude": 45.6346831,
      "Longitude": -122.6502812,
      "State": "Washington"
    },
    {
      "School Name": "Clark University",
      "Student Population": 3122,
      "Latitude": 42.2516001,
      "Longitude": -71.823404,
      "State": "Massachusetts"
    },
    {
      "School Name": "Clarke University",
      "Student Population": 1004,
      "Latitude": 42.5091309,
      "Longitude": -90.689742,
      "State": "Iowa"
    },
    {
      "School Name": "Clarks Summit University",
      "Student Population": 768,
      "Latitude": 41.4951198,
      "Longitude": -75.6854254,
      "State": "Pennsylvania"
    },
    {
      "School Name": "Clarkson College",
      "Student Population": 1162,
      "Latitude": 41.2586219,
      "Longitude": -95.9749962,
      "State": "Nebraska"
    },
    {
      "School Name": "Clarkson University",
      "Student Population": 4274,
      "Latitude": 44.6650767,
      "Longitude": -74.9943713,
      "State": "New York"
    },
    {
      "School Name": "Clear Creek Baptist Bible College",
      "Student Population": 131,
      "Latitude": 36.713492,
      "Longitude": -83.732858,
      "State": "Kentucky"
    },
    {
      "School Name": "Cleary University",
      "Student Population": 594,
      "Latitude": 42.5866341,
      "Longitude": -83.8800182,
      "State": "Michigan"
    },
    {
      "School Name": "Clemson University",
      "Student Population": 24951,
      "Latitude": 34.679339,
      "Longitude": -82.835136,
      "State": "South Carolina"
    },
    {
      "School Name": "Cleveland Institute of Art",
      "Student Population": 670,
      "Latitude": 41.5103431,
      "Longitude": -81.6023071,
      "State": "Ohio"
    },
    {
      "School Name": "Cleveland Institute of Music",
      "Student Population": 402,
      "Latitude": 41.5122999,
      "Longitude": -81.6089017,
      "State": "Ohio"
    },
    {
      "School Name": "Cleveland State University",
      "Student Population": 16069,
      "Latitude": 41.5024973,
      "Longitude": -81.6747179,
      "State": "Ohio"
    },
    {
      "School Name": "Cleveland University-Kansas City",
      "Student Population": 549,
      "Latitude": 38.9320245,
      "Longitude": -94.6791894,
      "State": "Kansas"
    },
    {
      "School Name": "Clinton College",
      "Student Population": 193,
      "Latitude": 34.9134385,
      "Longitude": -81.0433782,
      "State": "South Carolina"
    },
    {
      "School Name": "Clover Park Technical College",
      "Student Population": 3905,
      "Latitude": 47.1746864,
      "Longitude": -122.4998848,
      "State": "Washington"
    },
    {
      "School Name": "Coastal Carolina University",
      "Student Population": 10641,
      "Latitude": 33.795026,
      "Longitude": -79.011802,
      "State": "South Carolina"
    },
    {
      "School Name": "Coe College",
      "Student Population": 1422,
      "Latitude": 41.9882822,
      "Longitude": -91.6578519,
      "State": "Iowa"
    },
    {
      "School Name": "Cogswell College",
      "Student Population": 599,
      "Latitude": 37.4140248,
      "Longitude": -121.9408227,
      "State": "California"
    },
    {
      "School Name": "Coker College",
      "Student Population": 1280,
      "Latitude": 34.3765863,
      "Longitude": -80.0704879,
      "State": "South Carolina"
    },
    {
      "School Name": "Colby College",
      "Student Population": 2000,
      "Latitude": 44.5626829,
      "Longitude": -69.6600894,
      "State": "Maine"
    },
    {
      "School Name": "Colby-Sawyer College",
      "Student Population": 859,
      "Latitude": 43.4143404,
      "Longitude": -71.971789,
      "State": "New Hampshire"
    },
    {
      "School Name": "Colegio Universitario de San Juan",
      "Student Population": 1174,
      "Latitude": 18.428577,
      "Longitude": -66.066599,
      "State": "Puerto Rico"
    },
    {
      "School Name": "Colgate University",
      "Student Population": 2969,
      "Latitude": 42.8183255,
      "Longitude": -75.5364956,
      "State": "New York"
    },
    {
      "School Name": "College for Creative Studies",
      "Student Population": 1485,
      "Latitude": 42.3612517,
      "Longitude": -83.0641216,
      "State": "Michigan"
    },
    {
      "School Name": "College of Biblical Studies-Houston",
      "Student Population": 376,
      "Latitude": 29.7165776,
      "Longitude": -95.5065542,
      "State": "Texas"
    },
    {
      "School Name": "College of Business and Technology-Miami Campus",
      "Student Population": "null",
      "Latitude": 25.7685469,
      "Longitude": -80.3374936,
      "State": "Florida"
    },
    {
      "School Name": "College of Business and Technology-Miami Gardens",
      "Student Population": "null",
      "Latitude": 25.9247102,
      "Longitude": -80.2846575,
      "State": "Florida"
    },
    {
      "School Name": "College of Central Florida",
      "Student Population": 6820,
      "Latitude": 29.1626611,
      "Longitude": -82.1729158,
      "State": "Florida"
    },
    {
      "School Name": "College of Charleston",
      "Student Population": 10783,
      "Latitude": 32.7834631,
      "Longitude": -79.9372833,
      "State": "South Carolina"
    },
    {
      "School Name": "College of Coastal Georgia",
      "Student Population": 3546,
      "Latitude": 31.1832649,
      "Longitude": -81.4867812,
      "State": "Georgia"
    },
    {
      "School Name": "College of Menominee Nation",
      "Student Population": 237,
      "Latitude": 44.8838712,
      "Longitude": -88.6337152,
      "State": "Wisconsin"
    },
    {
      "School Name": "College of Mount Saint Vincent",
      "Student Population": 1861,
      "Latitude": 40.9124186,
      "Longitude": -73.9030114,
      "State": "New York"
    },
    {
      "School Name": "College of Our Lady of the Elms",
      "Student Population": 1531,
      "Latitude": 42.1418743,
      "Longitude": -72.6016552,
      "State": "Massachusetts"
    },
    {
      "School Name": "College of Saint Benedict",
      "Student Population": 1782,
      "Latitude": 45.5604658,
      "Longitude": -94.3216992,
      "State": "Minnesota"
    },
    {
      "School Name": "College of Saint Elizabeth",
      "Student Population": 1186,
      "Latitude": 40.7806132,
      "Longitude": -74.4393729,
      "State": "New Jersey"
    },
    {
      "School Name": "College of Saint Mary",
      "Student Population": 1168,
      "Latitude": 41.2385337,
      "Longitude": -96.0212678,
      "State": "Nebraska"
    },
    {
      "School Name": "College of Southern Nevada",
      "Student Population": 34169,
      "Latitude": 36.1556186,
      "Longitude": -115.2325897,
      "State": "Nevada"
    },
    {
      "School Name": "College of St Joseph",
      "Student Population": 227,
      "Latitude": 43.6003659,
      "Longitude": -73.0017844,
      "State": "Vermont"
    },
    {
      "School Name": "College of Staten Island CUNY",
      "Student Population": 13247,
      "Latitude": 40.6080147,
      "Longitude": -74.1533194,
      "State": "New York"
    },
    {
      "School Name": "College of William and Mary",
      "Student Population": 8817,
      "Latitude": 37.271949,
      "Longitude": -76.709328,
      "State": "Virginia"
    },
    {
      "School Name": "College of the Atlantic",
      "Student Population": 337,
      "Latitude": 44.3951138,
      "Longitude": -68.2219089,
      "State": "Maine"
    },
    {
      "School Name": "College of the Holy Cross",
      "Student Population": 2939,
      "Latitude": 42.2392391,
      "Longitude": -71.8079608,
      "State": "Massachusetts"
    },
    {
      "School Name": "College of the Ozarks",
      "Student Population": 1565,
      "Latitude": 36.6192811,
      "Longitude": -93.239568,
      "State": "Missouri"
    },
    {
      "School Name": "CollegeAmerica-Colorado Springs",
      "Student Population": 143,
      "Latitude": 38.8405102,
      "Longitude": -104.7600321,
      "State": "Colorado"
    },
    {
      "School Name": "CollegeAmerica-Flagstaff",
      "Student Population": 62,
      "Latitude": 35.1944221,
      "Longitude": -111.6575951,
      "State": "Arizona"
    },
    {
      "School Name": "CollegeAmerica-Fort Collins",
      "Student Population": 113,
      "Latitude": 40.5230221,
      "Longitude": -105.0802713,
      "State": "Colorado"
    },
    {
      "School Name": "CollegeAmerica-Phoenix",
      "Student Population": 488,
      "Latitude": 33.5746395,
      "Longitude": -112.1179648,
      "State": "Arizona"
    },
    {
      "School Name": "Colorado Christian University",
      "Student Population": 7625,
      "Latitude": 39.7131041,
      "Longitude": -105.0959302,
      "State": "Colorado"
    },
    {
      "School Name": "Colorado College",
      "Student Population": 2144,
      "Latitude": 38.847021,
      "Longitude": -104.823665,
      "State": "Colorado"
    },
    {
      "School Name": "Colorado Mesa University",
      "Student Population": 9492,
      "Latitude": 39.0803555,
      "Longitude": -108.5544794,
      "State": "Colorado"
    },
    {
      "School Name": "Colorado Mountain College",
      "Student Population": 5688,
      "Latitude": 39.5464088,
      "Longitude": -107.3244047,
      "State": "Colorado"
    },
    {
      "School Name": "Colorado School of Mines",
      "Student Population": 6325,
      "Latitude": 39.7508585,
      "Longitude": -105.2238689,
      "State": "Colorado"
    },
    {
      "School Name": "Colorado State University-Fort Collins",
      "Student Population": 33478,
      "Latitude": 40.5531717,
      "Longitude": -105.0866585,
      "State": "Colorado"
    },
    {
      "School Name": "Colorado State University-Pueblo",
      "Student Population": 6736,
      "Latitude": 38.3060152,
      "Longitude": -104.579911,
      "State": "Colorado"
    },
    {
      "School Name": "Colorado Technical University-Colorado Springs",
      "Student Population": 26184,
      "Latitude": 38.8942226,
      "Longitude": -104.8342439,
      "State": "Colorado"
    },
    {
      "School Name": "Columbia Basin College",
      "Student Population": 7034,
      "Latitude": 46.2521452,
      "Longitude": -119.1238877,
      "State": "Washington"
    },
    {
      "School Name": "Columbia Central University-Caguas",
      "Student Population": 1156,
      "Latitude": 18.1751008,
      "Longitude": -65.9106261,
      "State": "Puerto Rico"
    },
    {
      "School Name": "Columbia Central University-Yauco",
      "Student Population": 283,
      "Latitude": 18.0377258,
      "Longitude": -66.8491876,
      "State": "Puerto Rico"
    },
    {
      "School Name": "Columbia College Chicago",
      "Student Population": 6825,
      "Latitude": 41.8741947,
      "Longitude": -87.6247696,
      "State": "Illinois"
    },
    {
      "School Name": "Columbia College Hollywood",
      "Student Population": 540,
      "Latitude": 34.1794632,
      "Longitude": -118.5388957,
      "State": "California"
    },
    {
      "School Name": "Columbia International University",
      "Student Population": 1048,
      "Latitude": 34.0753414,
      "Longitude": -81.0753481,
      "State": "South Carolina"
    },
    {
      "School Name": "Columbia University in the City of New York",
      "Student Population": 31077,
      "Latitude": 40.8079878,
      "Longitude": -73.9638163,
      "State": "New York"
    },
    {
      "School Name": "Columbus College of Art and Design",
      "Student Population": 1094,
      "Latitude": 39.9648828,
      "Longitude": -82.989947,
      "State": "Ohio"
    },
    {
      "School Name": "Columbus State University",
      "Student Population": 8076,
      "Latitude": 32.5023087,
      "Longitude": -84.9414487,
      "State": "Georgia"
    },
    {
      "School Name": "Community College of Denver",
      "Student Population": 7887,
      "Latitude": 39.7413005,
      "Longitude": -105.0011656,
      "State": "Colorado"
    },
    {
      "School Name": "Compass College of Cinematic Arts",
      "Student Population": 129,
      "Latitude": 42.9620187,
      "Longitude": -85.6668419,
      "State": "Michigan"
    },
    {
      "School Name": "Conception Seminary College",
      "Student Population": 64,
      "Latitude": 40.2423699,
      "Longitude": -94.6834278,
      "State": "Missouri"
    },
    {
      "School Name": "Concord University",
      "Student Population": 2040,
      "Latitude": 37.4226958,
      "Longitude": -81.007817,
      "State": "West Virginia"
    },
    {
      "School Name": "Concordia College at Moorhead",
      "Student Population": 2129,
      "Latitude": 46.8648964,
      "Longitude": -96.770366,
      "State": "Minnesota"
    },
    {
      "School Name": "Concordia College-New York",
      "Student Population": 1737,
      "Latitude": 40.9437539,
      "Longitude": -73.8199427,
      "State": "New York"
    },
    {
      "School Name": "Concordia University Texas",
      "Student Population": 2568,
      "Latitude": 30.4209992,
      "Longitude": -97.8362386,
      "State": "Texas"
    },
    {
      "School Name": "Concordia University-Ann Arbor",
      "Student Population": 1197,
      "Latitude": 42.274529,
      "Longitude": -83.6823524,
      "State": "Michigan"
    },
    {
      "School Name": "Concordia University-Chicago",
      "Student Population": 6005,
      "Latitude": 41.900068,
      "Longitude": -87.8095272,
      "State": "Illinois"
    },
    {
      "School Name": "Concordia University-Irvine",
      "Student Population": 4162,
      "Latitude": 33.6545502,
      "Longitude": -117.8123154,
      "State": "California"
    },
    {
      "School Name": "Concordia University-Nebraska",
      "Student Population": 2424,
      "Latitude": 40.9135666,
      "Longitude": -97.0890104,
      "State": "Nebraska"
    },
    {
      "School Name": "Concordia University-Portland",
      "Student Population": 5342,
      "Latitude": 45.568541,
      "Longitude": -122.6373017,
      "State": "Oregon"
    },
    {
      "School Name": "Concordia University-Saint Paul",
      "Student Population": 5054,
      "Latitude": 44.950563,
      "Longitude": -93.15527,
      "State": "Minnesota"
    },
    {
      "School Name": "Concordia University-Wisconsin",
      "Student Population": 6374,
      "Latitude": 43.2544619,
      "Longitude": -87.915778,
      "State": "Wisconsin"
    },
    {
      "School Name": "Connecticut College",
      "Student Population": 1844,
      "Latitude": 41.3786877,
      "Longitude": -72.1045869,
      "State": "Connecticut"
    },
    {
      "School Name": "Conservatory of Music of Puerto Rico",
      "Student Population": 413,
      "Latitude": 18.454341,
      "Longitude": -66.079469,
      "State": "Puerto Rico"
    },
    {
      "School Name": "Converse College",
      "Student Population": 1380,
      "Latitude": 34.954266,
      "Longitude": -81.917066,
      "State": "South Carolina"
    },
    {
      "School Name": "Cooper Union for the Advancement of Science and Art",
      "Student Population": 952,
      "Latitude": 40.7294081,
      "Longitude": -73.9904866,
      "State": "New York"
    },
    {
      "School Name": "Coppin State University",
      "Student Population": 2738,
      "Latitude": 39.3126114,
      "Longitude": -76.6579046,
      "State": "Maryland"
    },
    {
      "School Name": "Corban University",
      "Student Population": 1183,
      "Latitude": 44.8830429,
      "Longitude": -122.9589391,
      "State": "Oregon"
    },
    {
      "School Name": "Cornell College",
      "Student Population": 1028,
      "Latitude": 41.9245718,
      "Longitude": -91.4237652,
      "State": "Iowa"
    },
    {
      "School Name": "Cornell University",
      "Student Population": 23600,
      "Latitude": 42.4472814,
      "Longitude": -76.4831835,
      "State": "New York"
    },
    {
      "School Name": "Cornerstone University",
      "Student Population": 2131,
      "Latitude": 42.9801473,
      "Longitude": -85.5920923,
      "State": "Michigan"
    },
    {
      "School Name": "Cornish College of the Arts",
      "Student Population": 625,
      "Latitude": 47.618272,
      "Longitude": -122.3363543,
      "State": "Washington"
    },
    {
      "School Name": "Cottey College",
      "Student Population": 271,
      "Latitude": 37.8380548,
      "Longitude": -94.3701012,
      "State": "Missouri"
    },
    {
      "School Name": "Covenant College",
      "Student Population": 1046,
      "Latitude": 34.9542752,
      "Longitude": -85.3778797,
      "State": "Georgia"
    },
    {
      "School Name": "Cox College",
      "Student Population": 919,
      "Latitude": 37.22498,
      "Longitude": -93.289904,
      "State": "Missouri"
    },
    {
      "School Name": "Creighton University",
      "Student Population": 8910,
      "Latitude": 41.2655878,
      "Longitude": -95.9486026,
      "State": "Nebraska"
    },
    {
      "School Name": "Criswell College",
      "Student Population": 236,
      "Latitude": 32.7928139,
      "Longitude": -96.7770053,
      "State": "Texas"
    },
    {
      "School Name": "Crossroads Bible College",
      "Student Population": 157,
      "Latitude": 39.7796839,
      "Longitude": -86.0396483,
      "State": "Indiana"
    },
    {
      "School Name": "Crowley's Ridge College",
      "Student Population": 198,
      "Latitude": 36.066437,
      "Longitude": -90.584504,
      "State": "Arkansas"
    },
    {
      "School Name": "Crown College",
      "Student Population": 1510,
      "Latitude": 44.884838,
      "Longitude": -93.7425367,
      "State": "Minnesota"
    },
    {
      "School Name": "Culinary Institute of America",
      "Student Population": 2990,
      "Latitude": 41.7457259,
      "Longitude": -73.9327674,
      "State": "New York"
    },
    {
      "School Name": "Culver-Stockton College",
      "Student Population": 1068,
      "Latitude": 40.1290996,
      "Longitude": -91.5335407,
      "State": "Missouri"
    },
    {
      "School Name": "Cumberland University",
      "Student Population": 2405,
      "Latitude": 36.2052571,
      "Longitude": -86.2990749,
      "State": "Tennessee"
    },
    {
      "School Name": "Curry College",
      "Student Population": 2580,
      "Latitude": 42.2369018,
      "Longitude": -71.1136576,
      "State": "Massachusetts"
    },
    {
      "School Name": "Curtis Institute of Music",
      "Student Population": 171,
      "Latitude": 39.9488985,
      "Longitude": -75.1706689,
      "State": "Pennsylvania"
    },
    {
      "School Name": "Cypress College",
      "Student Population": 15794,
      "Latitude": 33.8279582,
      "Longitude": -118.023732,
      "State": "California"
    },
    {
      "School Name": "D'Youville College",
      "Student Population": 3045,
      "Latitude": 42.9025892,
      "Longitude": -78.890939,
      "State": "New York"
    },
    {
      "School Name": "Daemen College",
      "Student Population": 2574,
      "Latitude": 42.9650703,
      "Longitude": -78.7897573,
      "State": "New York"
    },
    {
      "School Name": "Dakota State University",
      "Student Population": 3382,
      "Latitude": 44.0124808,
      "Longitude": -97.1117383,
      "State": "South Dakota"
    },
    {
      "School Name": "Dakota Wesleyan University",
      "Student Population": 1024,
      "Latitude": 43.6984049,
      "Longitude": -98.0303248,
      "State": "South Dakota"
    },
    {
      "School Name": "Dallas Baptist University",
      "Student Population": 4766,
      "Latitude": 32.7100766,
      "Longitude": -96.9469828,
      "State": "Texas"
    },
    {
      "School Name": "Dallas Christian College",
      "Student Population": 213,
      "Latitude": 32.9133282,
      "Longitude": -96.8867464,
      "State": "Texas"
    },
    {
      "School Name": "Dalton State College",
      "Student Population": 5118,
      "Latitude": 34.7732488,
      "Longitude": -85.0032037,
      "State": "Georgia"
    },
    {
      "School Name": "Dartmouth College",
      "Student Population": 6572,
      "Latitude": 43.704034,
      "Longitude": -72.2899456,
      "State": "New Hampshire"
    },
    {
      "School Name": "Davenport University",
      "Student Population": 6746,
      "Latitude": 42.8493922,
      "Longitude": -85.5306755,
      "State": "Michigan"
    },
    {
      "School Name": "Davidson College",
      "Student Population": 1843,
      "Latitude": 35.502236,
      "Longitude": -80.847517,
      "State": "North Carolina"
    },
    {
      "School Name": "Davis & Elkins College",
      "Student Population": 793,
      "Latitude": 38.9315561,
      "Longitude": -79.8457802,
      "State": "West Virginia"
    },
    {
      "School Name": "Davis College",
      "Student Population": 241,
      "Latitude": 42.1007417,
      "Longitude": -75.9621312,
      "State": "New York"
    },
    {
      "School Name": "Daytona State College",
      "Student Population": 13737,
      "Latitude": 29.2029077,
      "Longitude": -81.0499348,
      "State": "Florida"
    },
    {
      "School Name": "DePaul University",
      "Student Population": 22437,
      "Latitude": 41.8781342,
      "Longitude": -87.6271172,
      "State": "Illinois"
    },
    {
      "School Name": "DePauw University",
      "Student Population": 2156,
      "Latitude": 39.6408691,
      "Longitude": -86.8603269,
      "State": "Indiana"
    },
    {
      "School Name": "DeSales University",
      "Student Population": 3438,
      "Latitude": 40.5384792,
      "Longitude": -75.3776524,
      "State": "Pennsylvania"
    },
    {
      "School Name": "DeVry College of New York",
      "Student Population": 1471,
      "Latitude": 40.7476267,
      "Longitude": -73.9834847,
      "State": "New York"
    },
    {
      "School Name": "DeVry University-Arizona",
      "Student Population": 478,
      "Latitude": 33.5661741,
      "Longitude": -112.1045514,
      "State": "Arizona"
    },
    {
      "School Name": "DeVry University-California",
      "Student Population": 2499,
      "Latitude": 34.0628206,
      "Longitude": -117.8039405,
      "State": "California"
    },
    {
      "School Name": "DeVry University-Colorado",
      "Student Population": 171,
      "Latitude": 39.9191052,
      "Longitude": -105.0088975,
      "State": "Colorado"
    },
    {
      "School Name": "DeVry University-Florida",
      "Student Population": 804,
      "Latitude": 25.9875118,
      "Longitude": -80.3400229,
      "State": "Florida"
    },
    {
      "School Name": "DeVry University-Georgia",
      "Student Population": 1181,
      "Latitude": 33.7751609,
      "Longitude": -84.2972027,
      "State": "Georgia"
    },
    {
      "School Name": "DeVry University-Illinois",
      "Student Population": 17364,
      "Latitude": 41.9417837,
      "Longitude": -87.6920097,
      "State": "Illinois"
    },
    {
      "School Name": "DeVry University-Indiana",
      "Student Population": 62,
      "Latitude": 41.464368,
      "Longitude": -87.3266807,
      "State": "Indiana"
    },
    {
      "School Name": "DeVry University-Missouri",
      "Student Population": 111,
      "Latitude": 38.9394407,
      "Longitude": -94.5749917,
      "State": "Missouri"
    },
    {
      "School Name": "DeVry University-Nevada",
      "Student Population": 114,
      "Latitude": 36.0201607,
      "Longitude": -115.0963234,
      "State": "Nevada"
    },
    {
      "School Name": "DeVry University-New Jersey",
      "Student Population": 387,
      "Latitude": 40.4659344,
      "Longitude": -74.4388714,
      "State": "New Jersey"
    },
    {
      "School Name": "DeVry University-North Carolina",
      "Student Population": 118,
      "Latitude": 35.1376322,
      "Longitude": -80.9318895,
      "State": "North Carolina"
    },
    {
      "School Name": "DeVry University-Ohio",
      "Student Population": 772,
      "Latitude": 39.9405044,
      "Longitude": -82.9403245,
      "State": "Ohio"
    },
    {
      "School Name": "DeVry University-Pennsylvania",
      "Student Population": 297,
      "Latitude": 40.1352298,
      "Longitude": -75.1835848,
      "State": "Pennsylvania"
    },
    {
      "School Name": "DeVry University-Tennessee",
      "Student Population": 48,
      "Latitude": 36.0854267,
      "Longitude": -86.6943369,
      "State": "Tennessee"
    },
    {
      "School Name": "DeVry University-Texas",
      "Student Population": 642,
      "Latitude": 32.9345926,
      "Longitude": -97.0124653,
      "State": "Texas"
    },
    {
      "School Name": "DeVry University-Virginia",
      "Student Population": 374,
      "Latitude": 38.8523629,
      "Longitude": -77.0505657,
      "State": "Virginia"
    },
    {
      "School Name": "Dean College",
      "Student Population": 1320,
      "Latitude": 42.084841,
      "Longitude": -71.3980428,
      "State": "Massachusetts"
    },
    {
      "School Name": "Defiance College",
      "Student Population": 545,
      "Latitude": 41.2960849,
      "Longitude": -84.360202,
      "State": "Ohio"
    },
    {
      "School Name": "Delaware State University",
      "Student Population": 4586,
      "Latitude": 39.1884429,
      "Longitude": -75.5395702,
      "State": "Delaware"
    },
    {
      "School Name": "Delaware Technical Community College-Terry",
      "Student Population": 13895,
      "Latitude": 39.1980302,
      "Longitude": -75.5627461,
      "State": "Delaware"
    },
    {
      "School Name": "Delaware Valley University",
      "Student Population": 2428,
      "Latitude": 40.2991045,
      "Longitude": -75.1564069,
      "State": "Pennsylvania"
    },
    {
      "School Name": "Dell'Arte International School of Physical Theatre",
      "Student Population": 30,
      "Latitude": 40.8809052,
      "Longitude": -123.9888258,
      "State": "California"
    },
    {
      "School Name": "Delta State University",
      "Student Population": 3715,
      "Latitude": 33.746706,
      "Longitude": -90.7347194,
      "State": "Mississippi"
    },